{
  "service": [
    {
      "name": "yoga",
      "typeofservice": "free",
      "serviceprovider": [
        {
          "name": "patanjali",
          "address": "6/22 AZAD COLONY, KESHWAPUR, HUBLI",
          "pin": "580023",
          "state": "KARNATAKA",
          "contact": "",
          "mail": "",
          "url": "",
          "facebook": "",
          "twitter": "",
		  "centers": [
            {
              "district": "Bengaluru,",
              "taluk": "Byatarayanapura,",
              "locality": "Hegdenagar,",
              "address": "Rashtrottahana Vidya Kendra,Thanisandra Main Road,Bengaluru,",
              "pincode": "560077,",
              "timingsfrom": "5.45,",
              "timingsto": "7.00,",
              "trainer": "Raghu Prasad,Sudhama,",
              "contact": "9845547471,9008663619,",
              "code": "BANBATHN01,",
              "longitude": "40.266044,",
              "latitude": "-22"
            },
            {
              "district": "Bengaluru,",
              "taluk": "Byatarayanapura,",
              "locality": "Hegdenagar,",
              "address": "Rashtrottahana Vidya Kendra,Thanisandra Main Road,Bengaluru,",
              "pincode": "560077,",
              "timingsfrom": "5.45,",
              "timingsto": "7.00,",
              "trainer": "Raghu Prasad,Sudhama,",
              "contact": "9845547471,9008663619,",
              "code": "BANBATHN02,",
              "longitude": "40.266044,",
              "latitude": "-22"
            }
          ]
        },
        {
          "name": "Art of living",
          "address": "Kanakapura main road, Bengaluru",
          "pin": "580023",
          "state": "KARNATAKA",
          "contact": "",
          "mail": "",
          "url": "",
          "facebook": "",
          "twitter": "",
          "centers": [
            {
              "district": "Bengaluru,",
              "taluk": "Kanakapura,",
              "locality": "Kaggalipura,",
              "address": "Art Vidya Kendra,Thanisandra Main Road,Bengaluru,",
              "pincode": "560077,",
              "timingsfrom": "5.45,",
              "timingsto": "7.00,",
              "trainer": "Raghu Prasad,Sudhama,",
              "contact": "9845547471,9008663619,",
              "code": "BANBATHN01,",
              "longitude": "40.266044,",
              "latitude": "-22"
            },
            {
              "district": "Bengaluru,",
              "taluk": "Byatarayanapura,",
              "locality": "Hegdenagar,",
              "address": "Rashtrottahana Vidya Kendra,Thanisandra Main Road,Bengaluru,",
              "pincode": "560077,",
              "timingsfrom": "5.45,",
              "timingsto": "7.00,",
              "trainer": "Raghu Prasad,Sudhama,",
              "contact": "9845547471,9008663619,",
              "code": "BANBATHN01,",
              "longitude": "40.266044,",
              "latitude": "-22"
            }
          ]
        }
      ]
    },
    {
      "name": "Ayurveda",
      "typeofservice": "free",
      "serviceprovider": [
        {
          "name": "patanjali Ayurveda",
          "address": "6/22 AZAD COLONY, KESHWAPUR, HUBLI",
          "pin": "580023",
          "state": "KARNATAKA",
          "contact": "",
          "mail": "",
          "url": "",
          "facebook": "",
          "twitter": "",
          "centers": [
            {
              "district": "Bengaluru,",
              "taluk": "Byatarayanapura,",
              "locality": "Hegdenagar,",
              "address": "Rashtrottahana Vidya Kendra,Thanisandra Main Road,Bengaluru,",
              "pincode": "560077,",
              "timingsfrom": "5.45,",
              "timingsto": "7.00,",
              "trainer": "Raghu Prasad,Sudhama,",
              "contact": "9845547471,9008663619,",
              "code": "BANBATHN01,",
              "longitude": "40.266044,",
              "latitude": "-22"
            },
            {
              "district": "Bengaluru,",
              "taluk": "Byatarayanapura,",
              "locality": "Hegdenagar,",
              "address": "Rashtrottahana Vidya Kendra,Thanisandra Main Road,Bengaluru,",
              "pincode": "560077,",
              "timingsfrom": "5.45,",
              "timingsto": "7.00,",
              "trainer": "Raghu Prasad,Sudhama,",
              "contact": "9845547471,9008663619,",
              "code": "BANBATHN01,",
              "longitude": "40.266044,",
              "latitude": "-22"
            }
          ]
        },
        {
          "name": "Ramachandrapura matt",
          "address": "Ramachandrapura,Hosanagar, Shimoga",
          "pin": "580023",
          "state": "KARNATAKA",
          "contact": "",
          "mail": "",
          "url": "",
          "facebook": "",
          "twitter": "",
          "centers": [
            {
              "district": "Bengaluru,",
              "taluk": "Byatarayanapura,",
              "locality": "Hegdenagar,",
              "address": "Rashtrottahana Vidya Kendra,Thanisandra Main Road,Bengaluru,",
              "pincode": "560077,",
              "timingsfrom": "5.45,",
              "timingsto": "7.00,",
              "trainer": "Raghu Prasad,Sudhama,",
              "contact": "9845547471,9008663619,",
              "code": "BANBATHN01,",
              "longitude": "40.266044,",
              "latitude": "-22"
            },
            {
              "district": "Bengaluru,",
              "taluk": "Byatarayanapura,",
              "locality": "Hegdenagar,",
              "address": "Rashtrottahana Vidya Kendra,Thanisandra Main Road,Bengaluru,",
              "pincode": "560077,",
              "timingsfrom": "5.45,",
              "timingsto": "7.00,",
              "trainer": "Raghu Prasad,Sudhama,",
              "contact": "9845547471,9008663619,",
              "code": "BANBATHN01,",
              "longitude": "40.266044,",
              "latitude": "-22"
            }
          ]
        }
      ]
    }
  ]
}